0 DATE 20110115 T_LAT 24.358 T_LNG  87.673 CRACKER {   "results" : [      {         "address_components" : [            {               "long_name" : "Tetulia",               "short_name" : "Tetulia",               "types" : [ "locality", "political" ]            },            {               "long_name" : "Pakur",               "short_name" : "Pakur",               "types" : [ "administrative_area_level_2", "political" ]            },            {               "long_name" : "Jharkhand",               "short_name" : "JH",               "types" : [ "administrative_area_level_1", "political" ]            },            {               "long_name" : "India",               "short_name" : "IN",               "types" : [ "country", "political" ]            },            {               "long_name" : "816117",               "short_name" : "816117",               "types" : [ "postal_code" ]            }         ],         "formatted_address" : "Tetulia, Jharkhand 816117, India",         "geometry" : {            "bounds" : {               "northeast" : {                  "lat" : 24.36852,                  "lng" : 87.68025999999999               },               "southwest" : {                  "lat" : 24.3455699,                  "lng" : 87.66314               }            },            "location" : {               "lat" : 24.354967,               "lng" : 87.67044199999999            },            "location_type" : "APPROXIMATE",            "viewport" : {               "northeast" : {                  "lat" : 24.36852,                  "lng" : 87.68025999999999               },               "southwest" : {                  "lat" : 24.3455699,                  "lng" : 87.66314               }            }         },         "place_id" : "ChIJqeyGQrEP-jkRyDf5a8fLV3Q",         "types" : [ "locality", "political" ]      },      {         "address_components" : [            {               "long_name" : "816117",               "short_name" : "816117",               "types" : [ "postal_code" ]            },            {               "long_name" : "India",               "short_name" : "IN",               "types" : [ "country", "political" ]            }         ],         "formatted_address" : "816117, India",         "geometry" : {            "bounds" : {               "northeast" : {                  "lat" : 24.3749046,                  "lng" : 87.7692366               },               "southwest" : {                  "lat" : 24.2361024,                  "lng" : 87.56890109999999               }            },            "location" : {               "lat" : 24.2927168,               "lng" : 87.67783779999999            },            "location_type" : "APPROXIMATE",            "viewport" : {               "northeast" : {                  "lat" : 24.3749046,                  "lng" : 87.7692366               },               "southwest" : {                  "lat" : 24.2361024,                  "lng" : 87.56890109999999               }            }         },         "place_id" : "ChIJY080QmUF-jkRXP4ht44dCRc",         "types" : [ "postal_code" ]      },      {         "address_components" : [            {               "long_name" : "Pakur",               "short_name" : "Pakur",               "types" : [ "administrative_area_level_2", "political" ]            },            {               "long_name" : "Jharkhand",               "short_name" : "JH",               "types" : [ "administrative_area_level_1", "political" ]            },            {               "long_name" : "India",               "short_name" : "IN",               "types" : [ "country", "political" ]            }         ],         "formatted_address" : "Pakur, Jharkhand, India",         "geometry" : {            "bounds" : {               "northeast" : {                  "lat" : 24.8287799,                  "lng" : 87.91916999999999               },               "southwest" : {                  "lat" : 24.23668,                  "lng" : 87.38923000000001               }            },            "location" : {               "lat" : 24.55368,               "lng" : 87.658113            },            "location_type" : "APPROXIMATE",            "viewport" : {               "northeast" : {                  "lat" : 24.8287799,                  "lng" : 87.91916999999999               },               "southwest" : {                  "lat" : 24.23668,                  "lng" : 87.38923000000001               }            }         },         "place_id" : "ChIJuc7u1eFp-jkR5m6JkyQO1LE",         "types" : [ "administrative_area_level_2", "political" ]      },      {         "address_components" : [            {               "long_name" : "Jharkhand",               "short_name" : "JH",               "types" : [ "administrative_area_level_1", "political" ]            },            {               "long_name" : "India",               "short_name" : "IN",               "types" : [ "country", "political" ]            }         ],         "formatted_address" : "Jharkhand, India",         "geometry" : {            "bounds" : {               "northeast" : {                  "lat" : 25.328823,                  "lng" : 87.947529               },               "southwest" : {                  "lat" : 21.9729309,                  "lng" : 83.32382799999999               }            },            "location" : {               "lat" : 23.6101808,               "lng" : 85.2799354            },            "location_type" : "APPROXIMATE",            "viewport" : {               "northeast" : {                  "lat" : 25.328823,                  "lng" : 87.947529               },               "southwest" : {                  "lat" : 21.9729309,                  "lng" : 83.32382799999999               }            }         },         "place_id" : "ChIJVwhI34YjizkRBJDi7gm4xWI",         "types" : [ "administrative_area_level_1", "political" ]      },      {         "address_components" : [            {               "long_name" : "India",               "short_name" : "IN",               "types" : [ "country", "political" ]            }         ],         "formatted_address" : "India",         "geometry" : {            "bounds" : {               "northeast" : {                  "lat" : 35.5087008,                  "lng" : 97.395561               },               "southwest" : {                  "lat" : 6.7535159,                  "lng" : 68.1623859               }            },            "location" : {               "lat" : 20.593684,               "lng" : 78.96288            },            "location_type" : "APPROXIMATE",            "viewport" : {               "northeast" : {                  "lat" : 35.5087008,                  "lng" : 97.395561               },               "southwest" : {                  "lat" : 6.7535159,                  "lng" : 68.16288519999999               }            }         },         "place_id" : "ChIJkbeSa_BfYzARphNChaFPjNc",         "types" : [ "country", "political" ]      }   ],   "status" : "OK"} 
1 DATE 20110115 T_LAT 24.265 T_LNG  87.695 CRACKER {   "results" : [      {         "address_components" : [            {               "long_name" : "Unnamed Road",               "short_name" : "Unnamed Road",               "types" : [ "route" ]            },            {               "long_name" : "Madhabpur",               "short_name" : "Madhabpur",               "types" : [ "locality", "political" ]            },            {               "long_name" : "Birbhum",               "short_name" : "Birbhum",               "types" : [ "administrative_area_level_2", "political" ]            },            {               "long_name" : "West Bengal",               "short_name" : "WB",               "types" : [ "administrative_area_level_1", "political" ]            },            {               "long_name" : "India",               "short_name" : "IN",               "types" : [ "country", "political" ]            },            {               "long_name" : "731243",               "short_name" : "731243",               "types" : [ "postal_code" ]            }         ],         "formatted_address" : "Unnamed Road, Madhabpur, West Bengal 731243, India",         "geometry" : {            "bounds" : {               "northeast" : {                  "lat" : 24.257935,                  "lng" : 87.739189               },               "southwest" : {                  "lat" : 24.2519103,                  "lng" : 87.695666               }            },            "location" : {               "lat" : 24.2565224,               "lng" : 87.71672359999999            },            "location_type" : "GEOMETRIC_CENTER",            "viewport" : {               "northeast" : {                  "lat" : 24.257935,                  "lng" : 87.739189               },               "southwest" : {                  "lat" : 24.2519103,                  "lng" : 87.695666               }            }         },         "place_id" : "ChIJZa1T1Bcb-jkR8FyDAaJp5xg",         "types" : [ "route" ]      },      {         "address_components" : [            {               "long_name" : "Namo Parkura",               "short_name" : "Namo Parkura",               "types" : [ "locality", "political" ]            },            {               "long_name" : "Pakur",               "short_name" : "Pakur",               "types" : [ "administrative_area_level_2", "political" ]            },            {               "long_name" : "Jharkhand",               "short_name" : "JH",               "types" : [ "administrative_area_level_1", "political" ]            },            {               "long_name" : "India",               "short_name" : "IN",               "types" : [ "country", "political" ]            }         ],         "formatted_address" : "Namo Parkura, Jharkhand, India",         "geometry" : {            "bounds" : {               "northeast" : {                  "lat" : 24.26674,                  "lng" : 87.7036399               },               "southwest" : {                  "lat" : 24.2627699,                  "lng" : 87.69471999999999               }            },            "location" : {               "lat" : 24.265552,               "lng" : 87.69816999999999            },            "location_type" : "APPROXIMATE",            "viewport" : {               "northeast" : {                  "lat" : 24.26674,                  "lng" : 87.7036399               },               "southwest" : {                  "lat" : 24.2627699,                  "lng" : 87.69471999999999               }            }         },         "place_id" : "ChIJ19TAbCsb-jkR8WTR7nCHRio",         "types" : [ "locality", "political" ]      },      {         "address_components" : [            {               "long_name" : "816117",               "short_name" : "816117",               "types" : [ "postal_code" ]            },            {               "long_name" : "India",               "short_name" : "IN",               "types" : [ "country", "political" ]            }         ],         "formatted_address" : "816117, India",         "geometry" : {            "bounds" : {               "northeast" : {                  "lat" : 24.3749046,                  "lng" : 87.7692366               },               "southwest" : {                  "lat" : 24.2361024,                  "lng" : 87.56890109999999               }            },            "location" : {               "lat" : 24.2927168,               "lng" : 87.67783779999999            },            "location_type" : "APPROXIMATE",            "viewport" : {               "northeast" : {                  "lat" : 24.3749046,                  "lng" : 87.7692366               },               "southwest" : {                  "lat" : 24.2361024,                  "lng" : 87.56890109999999               }            }         },         "place_id" : "ChIJY080QmUF-jkRXP4ht44dCRc",         "types" : [ "postal_code" ]      },      {         "address_components" : [            {               "long_name" : "Pakur",               "short_name" : "Pakur",               "types" : [ "administrative_area_level_2", "political" ]            },            {               "long_name" : "Jharkhand",               "short_name" : "JH",               "types" : [ "administrative_area_level_1", "political" ]            },            {               "long_name" : "India",               "short_name" : "IN",               "types" : [ "country", "political" ]            }         ],         "formatted_address" : "Pakur, Jharkhand, India",         "geometry" : {            "bounds" : {               "northeast" : {                  "lat" : 24.8287799,                  "lng" : 87.91916999999999               },               "southwest" : {                  "lat" : 24.23668,                  "lng" : 87.38923000000001               }            },            "location" : {               "lat" : 24.55368,               "lng" : 87.658113            },            "location_type" : "APPROXIMATE",            "viewport" : {               "northeast" : {                  "lat" : 24.8287799,                  "lng" : 87.91916999999999               },               "southwest" : {                  "lat" : 24.23668,                  "lng" : 87.38923000000001               }            }         },         "place_id" : "ChIJuc7u1eFp-jkR5m6JkyQO1LE",         "types" : [ "administrative_area_level_2", "political" ]      },      {         "address_components" : [            {               "long_name" : "Jharkhand",               "short_name" : "JH",               "types" : [ "administrative_area_level_1", "political" ]            },            {               "long_name" : "India",               "short_name" : "IN",               "types" : [ "country", "political" ]            }         ],         "formatted_address" : "Jharkhand, India",         "geometry" : {            "bounds" : {               "northeast" : {                  "lat" : 25.328823,                  "lng" : 87.947529               },               "southwest" : {                  "lat" : 21.9729309,                  "lng" : 83.32382799999999               }            },            "location" : {               "lat" : 23.6101808,               "lng" : 85.2799354            },            "location_type" : "APPROXIMATE",            "viewport" : {               "northeast" : {                  "lat" : 25.328823,                  "lng" : 87.947529               },               "southwest" : {                  "lat" : 21.9729309,                  "lng" : 83.32382799999999               }            }         },         "place_id" : "ChIJVwhI34YjizkRBJDi7gm4xWI",         "types" : [ "administrative_area_level_1", "political" ]      },      {         "address_components" : [            {               "long_name" : "India",               "short_name" : "IN",               "types" : [ "country", "political" ]            }         ],         "formatted_address" : "India",         "geometry" : {            "bounds" : {               "northeast" : {                  "lat" : 35.5087008,                  "lng" : 97.395561               },               "southwest" : {                  "lat" : 6.7535159,                  "lng" : 68.1623859               }            },            "location" : {               "lat" : 20.593684,               "lng" : 78.96288            },            "location_type" : "APPROXIMATE",            "viewport" : {               "northeast" : {                  "lat" : 35.5087008,                  "lng" : 97.395561               },               "southwest" : {                  "lat" : 6.7535159,                  "lng" : 68.16288519999999               }            }         },         "place_id" : "ChIJkbeSa_BfYzARphNChaFPjNc",         "types" : [ "country", "political" ]      }   ],   "status" : "OK"} 
2 DATE 20110115 T_LAT 24.347 T_LNG  87.844 CRACKER {   "results" : [      {         "address_components" : [            {               "long_name" : "Khirpai - Jara - Srinagar - Ramjibonpur - Hazipur - Kamarpukur Road",               "short_name" : "SH 7",               "types" : [ "route" ]            },            {               "long_name" : "Diha",               "short_name" : "Diha",               "types" : [ "locality", "political" ]            },            {               "long_name" : "Birbhum",               "short_name" : "Birbhum",               "types" : [ "administrative_area_level_2", "political" ]            },            {               "long_name" : "West Bengal",               "short_name" : "WB",               "types" : [ "administrative_area_level_1", "political" ]            },            {               "long_name" : "India",               "short_name" : "IN",               "types" : [ "country", "political" ]            },            {               "long_name" : "731220",               "short_name" : "731220",               "types" : [ "postal_code" ]            }         ],         "formatted_address" : "SH 7, Diha, West Bengal 731220, India",         "geometry" : {            "bounds" : {               "northeast" : {                  "lat" : 24.3506722,                  "lng" : 87.8468075               },               "southwest" : {                  "lat" : 24.344289,                  "lng" : 87.8460154               }            },            "location" : {               "lat" : 24.3474674,               "lng" : 87.8463278            },            "location_type" : "GEOMETRIC_CENTER",            "viewport" : {               "northeast" : {                  "lat" : 24.3506722,                  "lng" : 87.84776043029152               },               "southwest" : {                  "lat" : 24.344289,                  "lng" : 87.84506246970849               }            }         },         "place_id" : "ChIJ4fjvldwX-jkRWx3dXl4rSKU",         "types" : [ "route" ]      },      {         "address_components" : [            {               "long_name" : "Sujalpur",               "short_name" : "Sujalpur",               "types" : [ "locality", "political" ]            },            {               "long_name" : "Birbhum",               "short_name" : "Birbhum",               "types" : [ "administrative_area_level_2", "political" ]            },            {               "long_name" : "West Bengal",               "short_name" : "WB",               "types" : [ "administrative_area_level_1", "political" ]            },            {               "long_name" : "India",               "short_name" : "IN",               "types" : [ "country", "political" ]            }         ],         "formatted_address" : "Sujalpur, West Bengal, India",         "geometry" : {            "bounds" : {               "northeast" : {                  "lat" : 24.3556099,                  "lng" : 87.84691000000001               },               "southwest" : {                  "lat" : 24.34123,                  "lng" : 87.83162               }            },            "location" : {               "lat" : 24.3514933,               "lng" : 87.8377842            },            "location_type" : "APPROXIMATE",            "viewport" : {               "northeast" : {                  "lat" : 24.3556099,                  "lng" : 87.84691000000001               },               "southwest" : {                  "lat" : 24.34123,                  "lng" : 87.83162               }            }         },         "place_id" : "ChIJ0ZFuS8EX-jkRYVojP5xIBvo",         "types" : [ "locality", "political" ]      },      {         "address_components" : [            {               "long_name" : "731220",               "short_name" : "731220",               "types" : [ "postal_code" ]            },            {               "long_name" : "Birbhum",               "short_name" : "Birbhum",               "types" : [ "administrative_area_level_2", "political" ]            },            {               "long_name" : "West Bengal",               "short_name" : "WB",               "types" : [ "administrative_area_level_1", "political" ]            },            {               "long_name" : "India",               "short_name" : "IN",               "types" : [ "country", "political" ]            }         ],         "formatted_address" : "West Bengal 731220, India",         "geometry" : {            "bounds" : {               "northeast" : {                  "lat" : 24.3510666,                  "lng" : 87.9500001               },               "southwest" : {                  "lat" : 24.2467979,                  "lng" : 87.7864099               }            },            "location" : {               "lat" : 24.3073256,               "lng" : 87.86479609999999            },            "location_type" : "APPROXIMATE",            "viewport" : {               "northeast" : {                  "lat" : 24.3510666,                  "lng" : 87.9500001               },               "southwest" : {                  "lat" : 24.2467979,                  "lng" : 87.7864099               }            }         },         "place_id" : "ChIJfyRISbwi-jkRgfkkUb0czX4",         "types" : [ "postal_code" ]      },      {         "address_components" : [            {               "long_name" : "Birbhum",               "short_name" : "Birbhum",               "types" : [ "administrative_area_level_2", "political" ]            },            {               "long_name" : "West Bengal",               "short_name" : "WB",               "types" : [ "administrative_area_level_1", "political" ]            },            {               "long_name" : "India",               "short_name" : "IN",               "types" : [ "country", "political" ]            }         ],         "formatted_address" : "Birbhum, West Bengal, India",         "geometry" : {            "bounds" : {               "northeast" : {                  "lat" : 24.5836,                  "lng" : 88.02327               },               "southwest" : {                  "lat" : 23.5410001,                  "lng" : 87.0880299               }            },            "location" : {               "lat" : 23.8401675,               "lng" : 87.6186379            },            "location_type" : "APPROXIMATE",            "viewport" : {               "northeast" : {                  "lat" : 24.5836,                  "lng" : 88.02327               },               "southwest" : {                  "lat" : 23.5410001,                  "lng" : 87.0880299               }            }         },         "place_id" : "ChIJIzDqkITi-TkRnr-CLDENvJM",         "types" : [ "administrative_area_level_2", "political" ]      },      {         "address_components" : [            {               "long_name" : "West Bengal",               "short_name" : "WB",               "types" : [ "administrative_area_level_1", "political" ]            },            {               "long_name" : "India",               "short_name" : "IN",               "types" : [ "country", "political" ]            }         ],         "formatted_address" : "West Bengal, India",         "geometry" : {            "bounds" : {               "northeast" : {                  "lat" : 27.220707,                  "lng" : 89.880039               },               "southwest" : {                  "lat" : 21.5468653,                  "lng" : 85.82095799999999               }            },            "location" : {               "lat" : 22.9867569,               "lng" : 87.85497549999999            },            "location_type" : "APPROXIMATE",            "viewport" : {               "northeast" : {                  "lat" : 27.220707,                  "lng" : 89.880039               },               "southwest" : {                  "lat" : 21.5468653,                  "lng" : 85.82095799999999               }            }         },         "place_id" : "ChIJh-iXE_8W-jkRCqLnwz06VHE",         "types" : [ "administrative_area_level_1", "political" ]      },      {         "address_components" : [            {               "long_name" : "India",               "short_name" : "IN",               "types" : [ "country", "political" ]            }         ],         "formatted_address" : "India",         "geometry" : {            "bounds" : {               "northeast" : {                  "lat" : 35.5087008,                  "lng" : 97.395561               },               "southwest" : {                  "lat" : 6.7535159,                  "lng" : 68.1623859               }            },            "location" : {               "lat" : 20.593684,               "lng" : 78.96288            },            "location_type" : "APPROXIMATE",            "viewport" : {               "northeast" : {                  "lat" : 35.5087008,                  "lng" : 97.395561               },               "southwest" : {                  "lat" : 6.7535159,                  "lng" : 68.16288519999999               }            }         },         "place_id" : "ChIJkbeSa_BfYzARphNChaFPjNc",         "types" : [ "country", "political" ]      }   ],   "status" : "OK"} 
3 DATE 20110115 T_LAT 23.95 T_LNG  88.589 CRACKER {   "results" : [      {         "address_components" : [            {               "long_name" : "Barbakpur Road",               "short_name" : "Barbakpur Rd",               "types" : [ "route" ]            },            {               "long_name" : "Bajitpur",               "short_name" : "Bajitpur",               "types" : [ "locality", "political" ]            },            {               "long_name" : "Nadia",               "short_name" : "Nadia",               "types" : [ "administrative_area_level_2", "political" ]            },            {               "long_name" : "West Bengal",               "short_name" : "WB",               "types" : [ "administrative_area_level_1", "political" ]            },            {               "long_name" : "India",               "short_name" : "IN",               "types" : [ "country", "political" ]            },            {               "long_name" : "741152",               "short_name" : "741152",               "types" : [ "postal_code" ]            }         ],         "formatted_address" : "Barbakpur Rd, Bajitpur, West Bengal 741152, India",         "geometry" : {            "bounds" : {               "northeast" : {                  "lat" : 23.9535634,                  "lng" : 88.6184042               },               "southwest" : {                  "lat" : 23.946351,                  "lng" : 88.5726571               }            },            "location" : {               "lat" : 23.9521703,               "lng" : 88.59589160000002            },            "location_type" : "GEOMETRIC_CENTER",            "viewport" : {               "northeast" : {                  "lat" : 23.9535634,                  "lng" : 88.6184042               },               "southwest" : {                  "lat" : 23.946351,                  "lng" : 88.5726571               }            }         },         "place_id" : "ChIJ4_tkhNVa-TkRYk4orlWaOP8",         "types" : [ "route" ]      },      {         "address_components" : [            {               "long_name" : "741152",               "short_name" : "741152",               "types" : [ "postal_code" ]            },            {               "long_name" : "India",               "short_name" : "IN",               "types" : [ "country", "political" ]            }         ],         "formatted_address" : "741152, India",         "geometry" : {            "bounds" : {               "northeast" : {                  "lat" : 24.0409987,                  "lng" : 88.7388785               },               "southwest" : {                  "lat" : 23.8669556,                  "lng" : 88.4966333               }            },            "location" : {               "lat" : 23.970865,               "lng" : 88.57585739999999            },            "location_type" : "APPROXIMATE",            "viewport" : {               "northeast" : {                  "lat" : 24.0409987,                  "lng" : 88.7388785               },               "southwest" : {                  "lat" : 23.8669556,                  "lng" : 88.4966333               }            }         },         "place_id" : "ChIJ4VMymrZa-TkRbvMG3R-bxn0",         "types" : [ "postal_code" ]      },      {         "address_components" : [            {               "long_name" : "Nadia",               "short_name" : "Nadia",               "types" : [ "administrative_area_level_2", "political" ]            },            {               "long_name" : "West Bengal",               "short_name" : "WB",               "types" : [ "administrative_area_level_1", "political" ]            },            {               "long_name" : "India",               "short_name" : "IN",               "types" : [ "country", "political" ]            }         ],         "formatted_address" : "Nadia, West Bengal, India",         "geometry" : {            "bounds" : {               "northeast" : {                  "lat" : 24.09805,                  "lng" : 88.7944341               },               "southwest" : {                  "lat" : 22.87702,                  "lng" : 88.13560270000001               }            },            "location" : {               "lat" : 23.4709656,               "lng" : 88.55653099999999            },            "location_type" : "APPROXIMATE",            "viewport" : {               "northeast" : {                  "lat" : 24.09805,                  "lng" : 88.7944341               },               "southwest" : {                  "lat" : 22.87702,                  "lng" : 88.13560270000001               }            }         },         "place_id" : "ChIJ-yLO0Vwg-TkRrUTJdP3vaUQ",         "types" : [ "administrative_area_level_2", "political" ]      },      {         "address_components" : [            {               "long_name" : "West Bengal",               "short_name" : "WB",               "types" : [ "administrative_area_level_1", "political" ]            },            {               "long_name" : "India",               "short_name" : "IN",               "types" : [ "country", "political" ]            }         ],         "formatted_address" : "West Bengal, India",         "geometry" : {            "bounds" : {               "northeast" : {                  "lat" : 27.220707,                  "lng" : 89.880039               },               "southwest" : {                  "lat" : 21.5468653,                  "lng" : 85.82095799999999               }            },            "location" : {               "lat" : 22.9867569,               "lng" : 87.85497549999999            },            "location_type" : "APPROXIMATE",            "viewport" : {               "northeast" : {                  "lat" : 27.220707,                  "lng" : 89.880039               },               "southwest" : {                  "lat" : 21.5468653,                  "lng" : 85.82095799999999               }            }         },         "place_id" : "ChIJh-iXE_8W-jkRCqLnwz06VHE",         "types" : [ "administrative_area_level_1", "political" ]      },      {         "address_components" : [            {               "long_name" : "India",               "short_name" : "IN",               "types" : [ "country", "political" ]            }         ],         "formatted_address" : "India",         "geometry" : {            "bounds" : {               "northeast" : {                  "lat" : 35.5087008,                  "lng" : 97.395561               },               "southwest" : {                  "lat" : 6.7535159,                  "lng" : 68.1623859               }            },            "location" : {               "lat" : 20.593684,               "lng" : 78.96288            },            "location_type" : "APPROXIMATE",            "viewport" : {               "northeast" : {                  "lat" : 35.5087008,                  "lng" : 97.395561               },               "southwest" : {                  "lat" : 6.7535159,                  "lng" : 68.16288519999999               }            }         },         "place_id" : "ChIJkbeSa_BfYzARphNChaFPjNc",         "types" : [ "country", "political" ]      }   ],   "status" : "OK"} 
4 DATE 20110115 T_LAT 24.397 T_LNG  88.751 CRACKER {   "results" : [      {         "address_components" : [            {               "long_name" : "Unnamed Road",               "short_name" : "Unnamed Road",               "types" : [ "route" ]            },            {               "long_name" : "Rajshahi",               "short_name" : "Rajshahi",               "types" : [ "administrative_area_level_2", "political" ]            },            {               "long_name" : "Rajshahi Division",               "short_name" : "Rajshahi Division",               "types" : [ "administrative_area_level_1", "political" ]            },            {               "long_name" : "Bangladesh",               "short_name" : "BD",               "types" : [ "country", "political" ]            }         ],         "formatted_address" : "Unnamed Road, Bangladesh",         "geometry" : {            "bounds" : {               "northeast" : {                  "lat" : 24.3981394,                  "lng" : 88.7563509               },               "southwest" : {                  "lat" : 24.388212,                  "lng" : 88.74941919999999               }            },            "location" : {               "lat" : 24.3937029,               "lng" : 88.75426790000002            },            "location_type" : "GEOMETRIC_CENTER",            "viewport" : {               "northeast" : {                  "lat" : 24.3981394,                  "lng" : 88.7563509               },               "southwest" : {                  "lat" : 24.388212,                  "lng" : 88.74941919999999               }            }         },         "place_id" : "ChIJ310yRVn2-zkRuOl6FeujvGE",         "types" : [ "route" ]      },      {         "address_components" : [            {               "long_name" : "Puthia Upazila",               "short_name" : "Puthia Upazila",               "types" : [ "administrative_area_level_3", "political" ]            },            {               "long_name" : "Rajshahi",               "short_name" : "Rajshahi",               "types" : [ "administrative_area_level_2", "political" ]            },            {               "long_name" : "Rajshahi Division",               "short_name" : "Rajshahi Division",               "types" : [ "administrative_area_level_1", "political" ]            },            {               "long_name" : "Bangladesh",               "short_name" : "BD",               "types" : [ "country", "political" ]            },            {               "long_name" : "6260",               "short_name" : "6260",               "types" : [ "postal_code" ]            }         ],         "formatted_address" : "Puthia Upazila, 6260, Bangladesh",         "geometry" : {            "bounds" : {               "northeast" : {                  "lat" : 24.5202533,                  "lng" : 88.92703059999999               },               "southwest" : {                  "lat" : 24.3345452,                  "lng" : 88.700266               }            },            "location" : {               "lat" : 24.4010724,               "lng" : 88.84550369999999            },            "location_type" : "APPROXIMATE",            "viewport" : {               "northeast" : {                  "lat" : 24.5202533,                  "lng" : 88.92703059999999               },               "southwest" : {                  "lat" : 24.3345452,                  "lng" : 88.700266               }            }         },         "place_id" : "ChIJCYXXd3cJ_DkRUkPktY6vZw4",         "types" : [ "administrative_area_level_3", "political" ]      },      {         "address_components" : [            {               "long_name" : "Rajshahi",               "short_name" : "Rajshahi",               "types" : [ "administrative_area_level_2", "political" ]            },            {               "long_name" : "Rajshahi Division",               "short_name" : "Rajshahi Division",               "types" : [ "administrative_area_level_1", "political" ]            },            {               "long_name" : "Bangladesh",               "short_name" : "BD",               "types" : [ "country", "political" ]            },            {               "long_name" : "6000",               "short_name" : "6000",               "types" : [ "postal_code" ]            }         ],         "formatted_address" : "Rajshahi, 6000, Bangladesh",         "geometry" : {            "bounds" : {               "northeast" : {                  "lat" : 24.7173633,                  "lng" : 88.96453869999999               },               "southwest" : {                  "lat" : 24.1191818,                  "lng" : 88.30244069999999               }            },            "location" : {               "lat" : 24.4237542,               "lng" : 88.7108964            },            "location_type" : "APPROXIMATE",            "viewport" : {               "northeast" : {                  "lat" : 24.7173633,                  "lng" : 88.96453869999999               },               "southwest" : {                  "lat" : 24.1191818,                  "lng" : 88.30244069999999               }            }         },         "place_id" : "ChIJbcb_yIzx-zkR1oY-l5aqCiE",         "types" : [ "administrative_area_level_2", "political" ]      },      {         "address_components" : [            {               "long_name" : "Rajshahi Division",               "short_name" : "Rajshahi Division",               "types" : [ "administrative_area_level_1", "political" ]            },            {               "long_name" : "Bangladesh",               "short_name" : "BD",               "types" : [ "country", "political" ]            }         ],         "formatted_address" : "Rajshahi Division, Bangladesh",         "geometry" : {            "bounds" : {               "northeast" : {                  "lat" : 25.2159939,                  "lng" : 89.7901011               },               "southwest" : {                  "lat" : 23.8241019,                  "lng" : 88.02833609999999               }            },            "location" : {               "lat" : 24.7105776,               "lng" : 88.94138650000001            },            "location_type" : "APPROXIMATE",            "viewport" : {               "northeast" : {                  "lat" : 25.2159939,                  "lng" : 89.7901011               },               "southwest" : {                  "lat" : 23.8241019,                  "lng" : 88.02833609999999               }            }         },         "place_id" : "ChIJUQxO4QxR4zkRWai2T3_wsaE",         "types" : [ "administrative_area_level_1", "political" ]      },      {         "address_components" : [            {               "long_name" : "Bangladesh",               "short_name" : "BD",               "types" : [ "country", "political" ]            }         ],         "formatted_address" : "Bangladesh",         "geometry" : {            "bounds" : {               "northeast" : {                  "lat" : 26.6342434,                  "lng" : 92.6801153               },               "southwest" : {                  "lat" : 20.7464107,                  "lng" : 88.00858869999999               }            },            "location" : {               "lat" : 23.684994,               "lng" : 90.356331            },            "location_type" : "APPROXIMATE",            "viewport" : {               "northeast" : {                  "lat" : 26.6342434,                  "lng" : 92.6801153               },               "southwest" : {                  "lat" : 20.7464107,                  "lng" : 88.00858869999999               }            }         },         "place_id" : "ChIJp4vhgO2qrTARa_zhxOAoLQ8",         "types" : [ "country", "political" ]      }   ],   "status" : "OK"} 
5 DATE 20110115 T_LAT 24.178 T_LNG  89.001 CRACKER {   "results" : [      {         "address_components" : [            {               "long_name" : "গোপালপুর-গৌরীপুর রোড",               "short_name" : "গোপালপুর-গৌরীপুর রোড",               "types" : [ "route" ]            },            {               "long_name" : "Gouripur",               "short_name" : "Gouripur",               "types" : [ "sublocality_level_1", "sublocality", "political" ]            },            {               "long_name" : "Pabna",               "short_name" : "Pabna",               "types" : [ "administrative_area_level_2", "political" ]            },            {               "long_name" : "Rajshahi Division",               "short_name" : "Rajshahi Division",               "types" : [ "administrative_area_level_1", "political" ]            },            {               "long_name" : "Bangladesh",               "short_name" : "BD",               "types" : [ "country", "political" ]            }         ],         "formatted_address" : "গোপালপুর-গৌরীপুর রোড, Bangladesh",         "geometry" : {            "bounds" : {               "northeast" : {                  "lat" : 24.1793283,                  "lng" : 89.0037746               },               "southwest" : {                  "lat" : 24.1775935,                  "lng" : 89.0031597               }            },            "location" : {               "lat" : 24.1785276,               "lng" : 89.003276            },            "location_type" : "GEOMETRIC_CENTER",            "viewport" : {               "northeast" : {                  "lat" : 24.1798098802915,                  "lng" : 89.0048161302915               },               "southwest" : {                  "lat" : 24.1771119197085,                  "lng" : 89.0021181697085               }            }         },         "place_id" : "ChIJndU8zcgd_DkRGkW5_2GG-Eg",         "types" : [ "route" ]      },      {         "address_components" : [            {               "long_name" : "Lalpur Upazila",               "short_name" : "Lalpur Upazila",               "types" : [ "administrative_area_level_3", "political" ]            },            {               "long_name" : "Natore",               "short_name" : "Natore",               "types" : [ "administrative_area_level_2", "political" ]            },            {               "long_name" : "Rajshahi Division",               "short_name" : "Rajshahi Division",               "types" : [ "administrative_area_level_1", "political" ]            },            {               "long_name" : "Bangladesh",               "short_name" : "BD",               "types" : [ "country", "political" ]            },            {               "long_name" : "6421",               "short_name" : "6421",               "types" : [ "postal_code" ]            }         ],         "formatted_address" : "Lalpur Upazila, 6421, Bangladesh",         "geometry" : {            "bounds" : {               "northeast" : {                  "lat" : 24.2941362,                  "lng" : 89.084841               },               "southwest" : {                  "lat" : 24.1055309,                  "lng" : 88.85978209999999               }            },            "location" : {               "lat" : 24.2117459,               "lng" : 88.96053649999999            },            "location_type" : "APPROXIMATE",            "viewport" : {               "northeast" : {                  "lat" : 24.2941362,                  "lng" : 89.084841               },               "southwest" : {                  "lat" : 24.1055309,                  "lng" : 88.85978209999999               }            }         },         "place_id" : "ChIJlZE6kdgc_DkRDCZoXs30tqk",         "types" : [ "administrative_area_level_3", "political" ]      },      {         "address_components" : [            {               "long_name" : "Natore",               "short_name" : "Natore",               "types" : [ "administrative_area_level_2", "political" ]            },            {               "long_name" : "Rajshahi Division",               "short_name" : "Rajshahi Division",               "types" : [ "administrative_area_level_1", "political" ]            },            {               "long_name" : "Bangladesh",               "short_name" : "BD",               "types" : [ "country", "political" ]            },            {               "long_name" : "6400",               "short_name" : "6400",               "types" : [ "postal_code" ]            }         ],         "formatted_address" : "Natore, 6400, Bangladesh",         "geometry" : {            "bounds" : {               "northeast" : {                  "lat" : 24.6554422,                  "lng" : 89.3405628               },               "southwest" : {                  "lat" : 24.105237,                  "lng" : 88.84579169999999               }            },            "location" : {               "lat" : 24.4260457,               "lng" : 89.0179332            },            "location_type" : "APPROXIMATE",            "viewport" : {               "northeast" : {                  "lat" : 24.6554422,                  "lng" : 89.3405628               },               "southwest" : {                  "lat" : 24.105237,                  "lng" : 88.84579169999999               }            }         },         "place_id" : "ChIJt5aS8b89_DkRMHZdsoXIk_0",         "types" : [ "administrative_area_level_2", "political" ]      },      {         "address_components" : [            {               "long_name" : "Rajshahi Division",               "short_name" : "Rajshahi Division",               "types" : [ "administrative_area_level_1", "political" ]            },            {               "long_name" : "Bangladesh",               "short_name" : "BD",               "types" : [ "country", "political" ]            }         ],         "formatted_address" : "Rajshahi Division, Bangladesh",         "geometry" : {            "bounds" : {               "northeast" : {                  "lat" : 25.2159939,                  "lng" : 89.7901011               },               "southwest" : {                  "lat" : 23.8241019,                  "lng" : 88.02833609999999               }            },            "location" : {               "lat" : 24.7105776,               "lng" : 88.94138650000001            },            "location_type" : "APPROXIMATE",            "viewport" : {               "northeast" : {                  "lat" : 25.2159939,                  "lng" : 89.7901011               },               "southwest" : {                  "lat" : 23.8241019,                  "lng" : 88.02833609999999               }            }         },         "place_id" : "ChIJUQxO4QxR4zkRWai2T3_wsaE",         "types" : [ "administrative_area_level_1", "political" ]      },      {         "address_components" : [            {               "long_name" : "Bangladesh",               "short_name" : "BD",               "types" : [ "country", "political" ]            }         ],         "formatted_address" : "Bangladesh",         "geometry" : {            "bounds" : {               "northeast" : {                  "lat" : 26.6342434,                  "lng" : 92.6801153               },               "southwest" : {                  "lat" : 20.7464107,                  "lng" : 88.00858869999999               }            },            "location" : {               "lat" : 23.684994,               "lng" : 90.356331            },            "location_type" : "APPROXIMATE",            "viewport" : {               "northeast" : {                  "lat" : 26.6342434,                  "lng" : 92.6801153               },               "southwest" : {                  "lat" : 20.7464107,                  "lng" : 88.00858869999999               }            }         },         "place_id" : "ChIJp4vhgO2qrTARa_zhxOAoLQ8",         "types" : [ "country", "political" ]      }   ],   "status" : "OK"} 
6 DATE 20110115 T_LAT 23.964 T_LNG  88.59 CRACKER {   "results" : [      {         "address_components" : [            {               "long_name" : "Natidanga Road",               "short_name" : "Natidanga Road",               "types" : [ "route" ]            },            {               "long_name" : "Senpara",               "short_name" : "Senpara",               "types" : [ "locality", "political" ]            },            {               "long_name" : "Nadia",               "short_name" : "Nadia",               "types" : [ "administrative_area_level_2", "political" ]            },            {               "long_name" : "West Bengal",               "short_name" : "WB",               "types" : [ "administrative_area_level_1", "political" ]            },            {               "long_name" : "India",               "short_name" : "IN",               "types" : [ "country", "political" ]            },            {               "long_name" : "741152",               "short_name" : "741152",               "types" : [ "postal_code" ]            }         ],         "formatted_address" : "Natidanga Road, Senpara, West Bengal 741152, India",         "geometry" : {            "bounds" : {               "northeast" : {                  "lat" : 23.9778517,                  "lng" : 88.60205929999999               },               "southwest" : {                  "lat" : 23.9710091,                  "lng" : 88.579545               }            },            "location" : {               "lat" : 23.9764231,               "lng" : 88.59058329999999            },            "location_type" : "GEOMETRIC_CENTER",            "viewport" : {               "northeast" : {                  "lat" : 23.9778517,                  "lng" : 88.60205929999999               },               "southwest" : {                  "lat" : 23.9710091,                  "lng" : 88.579545               }            }         },         "place_id" : "ChIJFyIkyR5b-TkRpCzvOk6_HPU",         "types" : [ "route" ]      },      {         "address_components" : [            {               "long_name" : "Senpara",               "short_name" : "Senpara",               "types" : [ "locality", "political" ]            },            {               "long_name" : "Nadia",               "short_name" : "Nadia",               "types" : [ "administrative_area_level_2", "political" ]            },            {               "long_name" : "West Bengal",               "short_name" : "WB",               "types" : [ "administrative_area_level_1", "political" ]            },            {               "long_name" : "India",               "short_name" : "IN",               "types" : [ "country", "political" ]            },            {               "long_name" : "741152",               "short_name" : "741152",               "types" : [ "postal_code" ]            }         ],         "formatted_address" : "Senpara, West Bengal 741152, India",         "geometry" : {            "bounds" : {               "northeast" : {                  "lat" : 23.9853401,                  "lng" : 88.60459999999999               },               "southwest" : {                  "lat" : 23.9528399,                  "lng" : 88.57726               }            },            "location" : {               "lat" : 23.968047,               "lng" : 88.59276079999999            },            "location_type" : "APPROXIMATE",            "viewport" : {               "northeast" : {                  "lat" : 23.9853401,                  "lng" : 88.60459999999999               },               "southwest" : {                  "lat" : 23.9528399,                  "lng" : 88.57726               }            }         },         "place_id" : "ChIJVXsbjiFb-TkR-cmBpc_zE2Q",         "types" : [ "locality", "political" ]      },      {         "address_components" : [            {               "long_name" : "741152",               "short_name" : "741152",               "types" : [ "postal_code" ]            },            {               "long_name" : "India",               "short_name" : "IN",               "types" : [ "country", "political" ]            }         ],         "formatted_address" : "741152, India",         "geometry" : {            "bounds" : {               "northeast" : {                  "lat" : 24.0409987,                  "lng" : 88.7388785               },               "southwest" : {                  "lat" : 23.8669556,                  "lng" : 88.4966333               }            },            "location" : {               "lat" : 23.970865,               "lng" : 88.57585739999999            },            "location_type" : "APPROXIMATE",            "viewport" : {               "northeast" : {                  "lat" : 24.0409987,                  "lng" : 88.7388785               },               "southwest" : {                  "lat" : 23.8669556,                  "lng" : 88.4966333               }            }         },         "place_id" : "ChIJ4VMymrZa-TkRbvMG3R-bxn0",         "types" : [ "postal_code" ]      },      {         "address_components" : [            {               "long_name" : "Nadia",               "short_name" : "Nadia",               "types" : [ "administrative_area_level_2", "political" ]            },            {               "long_name" : "West Bengal",               "short_name" : "WB",               "types" : [ "administrative_area_level_1", "political" ]            },            {               "long_name" : "India",               "short_name" : "IN",               "types" : [ "country", "political" ]            }         ],         "formatted_address" : "Nadia, West Bengal, India",         "geometry" : {            "bounds" : {               "northeast" : {                  "lat" : 24.09805,                  "lng" : 88.7944341               },               "southwest" : {                  "lat" : 22.87702,                  "lng" : 88.13560270000001               }            },            "location" : {               "lat" : 23.4709656,               "lng" : 88.55653099999999            },            "location_type" : "APPROXIMATE",            "viewport" : {               "northeast" : {                  "lat" : 24.09805,                  "lng" : 88.7944341               },               "southwest" : {                  "lat" : 22.87702,                  "lng" : 88.13560270000001               }            }         },         "place_id" : "ChIJ-yLO0Vwg-TkRrUTJdP3vaUQ",         "types" : [ "administrative_area_level_2", "political" ]      },      {         "address_components" : [            {               "long_name" : "West Bengal",               "short_name" : "WB",               "types" : [ "administrative_area_level_1", "political" ]            },            {               "long_name" : "India",               "short_name" : "IN",               "types" : [ "country", "political" ]            }         ],         "formatted_address" : "West Bengal, India",         "geometry" : {            "bounds" : {               "northeast" : {                  "lat" : 27.220707,                  "lng" : 89.880039               },               "southwest" : {                  "lat" : 21.5468653,                  "lng" : 85.82095799999999               }            },            "location" : {               "lat" : 22.9867569,               "lng" : 87.85497549999999            },            "location_type" : "APPROXIMATE",            "viewport" : {               "northeast" : {                  "lat" : 27.220707,                  "lng" : 89.880039               },               "southwest" : {                  "lat" : 21.5468653,                  "lng" : 85.82095799999999               }            }         },         "place_id" : "ChIJh-iXE_8W-jkRCqLnwz06VHE",         "types" : [ "administrative_area_level_1", "political" ]      },      {         "address_components" : [            {               "long_name" : "India",               "short_name" : "IN",               "types" : [ "country", "political" ]            }         ],         "formatted_address" : "India",         "geometry" : {            "bounds" : {               "northeast" : {                  "lat" : 35.5087008,                  "lng" : 97.395561               },               "southwest" : {                  "lat" : 6.7535159,                  "lng" : 68.1623859               }            },            "location" : {               "lat" : 20.593684,               "lng" : 78.96288            },            "location_type" : "APPROXIMATE",            "viewport" : {               "northeast" : {                  "lat" : 35.5087008,                  "lng" : 97.395561               },               "southwest" : {                  "lat" : 6.7535159,                  "lng" : 68.16288519999999               }            }         },         "place_id" : "ChIJkbeSa_BfYzARphNChaFPjNc",         "types" : [ "country", "political" ]      }   ],   "status" : "OK"} 
7 DATE 20110115 T_LAT 24.284 T_LNG  88.791 CRACKER {   "results" : [      {         "address_components" : [            {               "long_name" : "Unnamed Road",               "short_name" : "Unnamed Road",               "types" : [ "route" ]            },            {               "long_name" : "Rajshahi",               "short_name" : "Rajshahi",               "types" : [ "administrative_area_level_2", "political" ]            },            {               "long_name" : "Rajshahi Division",               "short_name" : "Rajshahi Division",               "types" : [ "administrative_area_level_1", "political" ]            },            {               "long_name" : "Bangladesh",               "short_name" : "BD",               "types" : [ "country", "political" ]            }         ],         "formatted_address" : "Unnamed Road, Bangladesh",         "geometry" : {            "bounds" : {               "northeast" : {                  "lat" : 24.2835748,                  "lng" : 88.78550109999999               },               "southwest" : {                  "lat" : 24.2822447,                  "lng" : 88.7837038               }            },            "location" : {               "lat" : 24.2828948,               "lng" : 88.7845889            },            "location_type" : "GEOMETRIC_CENTER",            "viewport" : {               "northeast" : {                  "lat" : 24.2842587302915,                  "lng" : 88.7859514302915               },               "southwest" : {                  "lat" : 24.2815607697085,                  "lng" : 88.78325346970848               }            }         },         "place_id" : "ChIJy05QOX74-zkR_th_SZjXntQ",         "types" : [ "route" ]      },      {         "address_components" : [            {               "long_name" : "Charghat Upazila",               "short_name" : "Charghat Upazila",               "types" : [ "administrative_area_level_3", "political" ]            },            {               "long_name" : "Rajshahi",               "short_name" : "Rajshahi",               "types" : [ "administrative_area_level_2", "political" ]            },            {               "long_name" : "Rajshahi Division",               "short_name" : "Rajshahi Division",               "types" : [ "administrative_area_level_1", "political" ]            },            {               "long_name" : "Bangladesh",               "short_name" : "BD",               "types" : [ "country", "political" ]            },            {               "long_name" : "6270",               "short_name" : "6270",               "types" : [ "postal_code" ]            }         ],         "formatted_address" : "Charghat Upazila, 6270, Bangladesh",         "geometry" : {            "bounds" : {               "northeast" : {                  "lat" : 24.3738764,                  "lng" : 88.8607693               },               "southwest" : {                  "lat" : 24.230216,                  "lng" : 88.6672641               }            },            "location" : {               "lat" : 24.3054076,               "lng" : 88.7686382            },            "location_type" : "APPROXIMATE",            "viewport" : {               "northeast" : {                  "lat" : 24.3738764,                  "lng" : 88.8607693               },               "southwest" : {                  "lat" : 24.230216,                  "lng" : 88.6672641               }            }         },         "place_id" : "ChIJMWaueGz4-zkRQVAXsjhKqC4",         "types" : [ "administrative_area_level_3", "political" ]      },      {         "address_components" : [            {               "long_name" : "Rajshahi",               "short_name" : "Rajshahi",               "types" : [ "administrative_area_level_2", "political" ]            },            {               "long_name" : "Rajshahi Division",               "short_name" : "Rajshahi Division",               "types" : [ "administrative_area_level_1", "political" ]            },            {               "long_name" : "Bangladesh",               "short_name" : "BD",               "types" : [ "country", "political" ]            },            {               "long_name" : "6000",               "short_name" : "6000",               "types" : [ "postal_code" ]            }         ],         "formatted_address" : "Rajshahi, 6000, Bangladesh",         "geometry" : {            "bounds" : {               "northeast" : {                  "lat" : 24.7173633,                  "lng" : 88.96453869999999               },               "southwest" : {                  "lat" : 24.1191818,                  "lng" : 88.30244069999999               }            },            "location" : {               "lat" : 24.4237542,               "lng" : 88.7108964            },            "location_type" : "APPROXIMATE",            "viewport" : {               "northeast" : {                  "lat" : 24.7173633,                  "lng" : 88.96453869999999               },               "southwest" : {                  "lat" : 24.1191818,                  "lng" : 88.30244069999999               }            }         },         "place_id" : "ChIJbcb_yIzx-zkR1oY-l5aqCiE",         "types" : [ "administrative_area_level_2", "political" ]      },      {         "address_components" : [            {               "long_name" : "Rajshahi Division",               "short_name" : "Rajshahi Division",               "types" : [ "administrative_area_level_1", "political" ]            },            {               "long_name" : "Bangladesh",               "short_name" : "BD",               "types" : [ "country", "political" ]            }         ],         "formatted_address" : "Rajshahi Division, Bangladesh",         "geometry" : {            "bounds" : {               "northeast" : {                  "lat" : 25.2159939,                  "lng" : 89.7901011               },               "southwest" : {                  "lat" : 23.8241019,                  "lng" : 88.02833609999999               }            },            "location" : {               "lat" : 24.7105776,               "lng" : 88.94138650000001            },            "location_type" : "APPROXIMATE",            "viewport" : {               "northeast" : {                  "lat" : 25.2159939,                  "lng" : 89.7901011               },               "southwest" : {                  "lat" : 23.8241019,                  "lng" : 88.02833609999999               }            }         },         "place_id" : "ChIJUQxO4QxR4zkRWai2T3_wsaE",         "types" : [ "administrative_area_level_1", "political" ]      },      {         "address_components" : [            {               "long_name" : "Bangladesh",               "short_name" : "BD",               "types" : [ "country", "political" ]            }         ],         "formatted_address" : "Bangladesh",         "geometry" : {            "bounds" : {               "northeast" : {                  "lat" : 26.6342434,                  "lng" : 92.6801153               },               "southwest" : {                  "lat" : 20.7464107,                  "lng" : 88.00858869999999               }            },            "location" : {               "lat" : 23.684994,               "lng" : 90.356331            },            "location_type" : "APPROXIMATE",            "viewport" : {               "northeast" : {                  "lat" : 26.6342434,                  "lng" : 92.6801153               },               "southwest" : {                  "lat" : 20.7464107,                  "lng" : 88.00858869999999               }            }         },         "place_id" : "ChIJp4vhgO2qrTARa_zhxOAoLQ8",         "types" : [ "country", "political" ]      }   ],   "status" : "OK"} 
8 DATE 20110115 T_LAT 24.14 T_LNG  88.598 CRACKER {   "results" : [      {         "address_components" : [            {               "long_name" : "Unnamed Road",               "short_name" : "Unnamed Road",               "types" : [ "route" ]            },            {               "long_name" : "Debottar Lakshminarayanpur",               "short_name" : "Debottar Lakshminarayanpur",               "types" : [ "locality", "political" ]            },            {               "long_name" : "Murshidabad",               "short_name" : "Murshidabad",               "types" : [ "administrative_area_level_2", "political" ]            },            {               "long_name" : "West Bengal",               "short_name" : "WB",               "types" : [ "administrative_area_level_1", "political" ]            },            {               "long_name" : "India",               "short_name" : "IN",               "types" : [ "country", "political" ]            },            {               "long_name" : "742305",               "short_name" : "742305",               "types" : [ "postal_code" ]            }         ],         "formatted_address" : "Unnamed Road, Debottar Lakshminarayanpur, West Bengal 742305, India",         "geometry" : {            "bounds" : {               "northeast" : {                  "lat" : 24.1418095,                  "lng" : 88.5990232               },               "southwest" : {                  "lat" : 24.1403556,                  "lng" : 88.5955149               }            },            "location" : {               "lat" : 24.1410419,               "lng" : 88.5972484            },            "location_type" : "GEOMETRIC_CENTER",            "viewport" : {               "northeast" : {                  "lat" : 24.1424315302915,                  "lng" : 88.5990232               },               "southwest" : {                  "lat" : 24.1397335697085,                  "lng" : 88.5955149               }            }         },         "place_id" : "ChIJrwl8-4Di-zkR-nkdzlb-gWA",         "types" : [ "route" ]      },      {         "address_components" : [            {               "long_name" : "Debottar Lakshminarayanpur",               "short_name" : "Debottar Lakshminarayanpur",               "types" : [ "locality", "political" ]            },            {               "long_name" : "Murshidabad",               "short_name" : "Murshidabad",               "types" : [ "administrative_area_level_2", "political" ]            },            {               "long_name" : "West Bengal",               "short_name" : "WB",               "types" : [ "administrative_area_level_1", "political" ]            },            {               "long_name" : "India",               "short_name" : "IN",               "types" : [ "country", "political" ]            }         ],         "formatted_address" : "Debottar Lakshminarayanpur, West Bengal, India",         "geometry" : {            "bounds" : {               "northeast" : {                  "lat" : 24.1769201,                  "lng" : 88.62187               },               "southwest" : {                  "lat" : 24.13804,                  "lng" : 88.58734               }            },            "location" : {               "lat" : 24.1553832,               "lng" : 88.6000031            },            "location_type" : "APPROXIMATE",            "viewport" : {               "northeast" : {                  "lat" : 24.1769201,                  "lng" : 88.62187               },               "southwest" : {                  "lat" : 24.13804,                  "lng" : 88.58734               }            }         },         "place_id" : "ChIJg4DgiI3i-zkRSjtEJzbEisQ",         "types" : [ "locality", "political" ]      },      {         "address_components" : [            {               "long_name" : "742305",               "short_name" : "742305",               "types" : [ "postal_code" ]            },            {               "long_name" : "India",               "short_name" : "IN",               "types" : [ "country", "political" ]            }         ],         "formatted_address" : "742305, India",         "geometry" : {            "bounds" : {               "northeast" : {                  "lat" : 24.2241589,                  "lng" : 88.73850399999999               },               "southwest" : {                  "lat" : 24.0414064,                  "lng" : 88.57616259999999               }            },            "location" : {               "lat" : 24.1142487,               "lng" : 88.6530753            },            "location_type" : "APPROXIMATE",            "viewport" : {               "northeast" : {                  "lat" : 24.2241589,                  "lng" : 88.73850399999999               },               "southwest" : {                  "lat" : 24.0414064,                  "lng" : 88.57616259999999               }            }         },         "place_id" : "ChIJjZfyr95X-TkRdZYl3ZleeNo",         "types" : [ "postal_code" ]      },      {         "address_components" : [            {               "long_name" : "Murshidabad",               "short_name" : "Murshidabad",               "types" : [ "administrative_area_level_2", "political" ]            },            {               "long_name" : "West Bengal",               "short_name" : "WB",               "types" : [ "administrative_area_level_1", "political" ]            },            {               "long_name" : "India",               "short_name" : "IN",               "types" : [ "country", "political" ]            }         ],         "formatted_address" : "Murshidabad, West Bengal, India",         "geometry" : {            "bounds" : {               "northeast" : {                  "lat" : 24.8568101,                  "lng" : 88.74173689999999               },               "southwest" : {                  "lat" : 23.7201299,                  "lng" : 87.81908               }            },            "location" : {               "lat" : 24.2290007,               "lng" : 88.24611829999999            },            "location_type" : "APPROXIMATE",            "viewport" : {               "northeast" : {                  "lat" : 24.8568101,                  "lng" : 88.74173689999999               },               "southwest" : {                  "lat" : 23.7201299,                  "lng" : 87.81908               }            }         },         "place_id" : "ChIJQ4BOodN9-TkR7efebqYJFXA",         "types" : [ "administrative_area_level_2", "political" ]      },      {         "address_components" : [            {               "long_name" : "West Bengal",               "short_name" : "WB",               "types" : [ "administrative_area_level_1", "political" ]            },            {               "long_name" : "India",               "short_name" : "IN",               "types" : [ "country", "political" ]            }         ],         "formatted_address" : "West Bengal, India",         "geometry" : {            "bounds" : {               "northeast" : {                  "lat" : 27.220707,                  "lng" : 89.880039               },               "southwest" : {                  "lat" : 21.5468653,                  "lng" : 85.82095799999999               }            },            "location" : {               "lat" : 22.9867569,               "lng" : 87.85497549999999            },            "location_type" : "APPROXIMATE",            "viewport" : {               "northeast" : {                  "lat" : 27.220707,                  "lng" : 89.880039               },               "southwest" : {                  "lat" : 21.5468653,                  "lng" : 85.82095799999999               }            }         },         "place_id" : "ChIJh-iXE_8W-jkRCqLnwz06VHE",         "types" : [ "administrative_area_level_1", "political" ]      },      {         "address_components" : [            {               "long_name" : "India",               "short_name" : "IN",               "types" : [ "country", "political" ]            }         ],         "formatted_address" : "India",         "geometry" : {            "bounds" : {               "northeast" : {                  "lat" : 35.5087008,                  "lng" : 97.395561               },               "southwest" : {                  "lat" : 6.7535159,                  "lng" : 68.1623859               }            },            "location" : {               "lat" : 20.593684,               "lng" : 78.96288            },            "location_type" : "APPROXIMATE",            "viewport" : {               "northeast" : {                  "lat" : 35.5087008,                  "lng" : 97.395561               },               "southwest" : {                  "lat" : 6.7535159,                  "lng" : 68.16288519999999               }            }         },         "place_id" : "ChIJkbeSa_BfYzARphNChaFPjNc",         "types" : [ "country", "political" ]      }   ],   "status" : "OK"} 
9 DATE 20110115 T_LAT 24.196 T_LNG  88.653 CRACKER {   "results" : [      {         "address_components" : [            {               "long_name" : "Unnamed Road",               "short_name" : "Unnamed Road",               "types" : [ "route" ]            },            {               "long_name" : "Khayramari",               "short_name" : "Khayramari",               "types" : [ "locality", "political" ]            },            {               "long_name" : "Murshidabad",               "short_name" : "Murshidabad",               "types" : [ "administrative_area_level_2", "political" ]            },            {               "long_name" : "West Bengal",               "short_name" : "WB",               "types" : [ "administrative_area_level_1", "political" ]            },            {               "long_name" : "India",               "short_name" : "IN",               "types" : [ "country", "political" ]            },            {               "long_name" : "742113",               "short_name" : "742113",               "types" : [ "postal_code" ]            }         ],         "formatted_address" : "Unnamed Road, Khayramari, West Bengal 742113, India",         "geometry" : {            "bounds" : {               "northeast" : {                  "lat" : 24.1940358,                  "lng" : 88.65102589999999               },               "southwest" : {                  "lat" : 24.1931501,                  "lng" : 88.6490196               }            },            "location" : {               "lat" : 24.1937527,               "lng" : 88.6501055            },            "location_type" : "GEOMETRIC_CENTER",            "viewport" : {               "northeast" : {                  "lat" : 24.1949419302915,                  "lng" : 88.6513717302915               },               "southwest" : {                  "lat" : 24.1922439697085,                  "lng" : 88.64867376970849               }            }         },         "place_id" : "ChIJJ4RvRdz8-zkR5imEsICq3EY",         "types" : [ "route" ]      },      {         "address_components" : [            {               "long_name" : "Khayramari",               "short_name" : "Khayramari",               "types" : [ "locality", "political" ]            },            {               "long_name" : "Murshidabad",               "short_name" : "Murshidabad",               "types" : [ "administrative_area_level_2", "political" ]            },            {               "long_name" : "West Bengal",               "short_name" : "WB",               "types" : [ "administrative_area_level_1", "political" ]            },            {               "long_name" : "India",               "short_name" : "IN",               "types" : [ "country", "political" ]            }         ],         "formatted_address" : "Khayramari, West Bengal, India",         "geometry" : {            "bounds" : {               "northeast" : {                  "lat" : 24.2136701,                  "lng" : 88.67281               },               "southwest" : {                  "lat" : 24.1610301,                  "lng" : 88.62186               }            },            "location" : {               "lat" : 24.1795911,               "lng" : 88.64825329999999            },            "location_type" : "APPROXIMATE",            "viewport" : {               "northeast" : {                  "lat" : 24.2136701,                  "lng" : 88.67281               },               "southwest" : {                  "lat" : 24.1610301,                  "lng" : 88.62186               }            }         },         "place_id" : "ChIJecpTwdj8-zkRKfyQTYVCYFI",         "types" : [ "locality", "political" ]      },      {         "address_components" : [            {               "long_name" : "742113",               "short_name" : "742113",               "types" : [ "postal_code" ]            },            {               "long_name" : "Murshidabad",               "short_name" : "Murshidabad",               "types" : [ "administrative_area_level_2", "political" ]            },            {               "long_name" : "West Bengal",               "short_name" : "WB",               "types" : [ "administrative_area_level_1", "political" ]            },            {               "long_name" : "India",               "short_name" : "IN",               "types" : [ "country", "political" ]            }         ],         "formatted_address" : "West Bengal 742113, India",         "geometry" : {            "bounds" : {               "northeast" : {                  "lat" : 24.2231961,                  "lng" : 88.69946               },               "southwest" : {                  "lat" : 24.1853381,                  "lng" : 88.64507279999999               }            },            "location" : {               "lat" : 24.2036175,               "lng" : 88.67717709999999            },            "location_type" : "APPROXIMATE",            "viewport" : {               "northeast" : {                  "lat" : 24.2231961,                  "lng" : 88.69946               },               "southwest" : {                  "lat" : 24.1853381,                  "lng" : 88.64507279999999               }            }         },         "place_id" : "ChIJr6I8-PX8-zkRjHnI0HY5_q0",         "types" : [ "postal_code" ]      },      {         "address_components" : [            {               "long_name" : "Murshidabad",               "short_name" : "Murshidabad",               "types" : [ "administrative_area_level_2", "political" ]            },            {               "long_name" : "West Bengal",               "short_name" : "WB",               "types" : [ "administrative_area_level_1", "political" ]            },            {               "long_name" : "India",               "short_name" : "IN",               "types" : [ "country", "political" ]            }         ],         "formatted_address" : "Murshidabad, West Bengal, India",         "geometry" : {            "bounds" : {               "northeast" : {                  "lat" : 24.8568101,                  "lng" : 88.74173689999999               },               "southwest" : {                  "lat" : 23.7201299,                  "lng" : 87.81908               }            },            "location" : {               "lat" : 24.2290007,               "lng" : 88.24611829999999            },            "location_type" : "APPROXIMATE",            "viewport" : {               "northeast" : {                  "lat" : 24.8568101,                  "lng" : 88.74173689999999               },               "southwest" : {                  "lat" : 23.7201299,                  "lng" : 87.81908               }            }         },         "place_id" : "ChIJQ4BOodN9-TkR7efebqYJFXA",         "types" : [ "administrative_area_level_2", "political" ]      },      {         "address_components" : [            {               "long_name" : "West Bengal",               "short_name" : "WB",               "types" : [ "administrative_area_level_1", "political" ]            },            {               "long_name" : "India",               "short_name" : "IN",               "types" : [ "country", "political" ]            }         ],         "formatted_address" : "West Bengal, India",         "geometry" : {            "bounds" : {               "northeast" : {                  "lat" : 27.220707,                  "lng" : 89.880039               },               "southwest" : {                  "lat" : 21.5468653,                  "lng" : 85.82095799999999               }            },            "location" : {               "lat" : 22.9867569,               "lng" : 87.85497549999999            },            "location_type" : "APPROXIMATE",            "viewport" : {               "northeast" : {                  "lat" : 27.220707,                  "lng" : 89.880039               },               "southwest" : {                  "lat" : 21.5468653,                  "lng" : 85.82095799999999               }            }         },         "place_id" : "ChIJh-iXE_8W-jkRCqLnwz06VHE",         "types" : [ "administrative_area_level_1", "political" ]      }   ],   "status" : "OK"} 
10 DATE 20110115 T_LAT 24.375 T_LNG  87.673 CRACKER {   "results" : [      {         "address_components" : [            {               "long_name" : "Lakdom",               "short_name" : "Lakdom",               "types" : [ "locality", "political" ]            },            {               "long_name" : "Pakur",               "short_name" : "Pakur",               "types" : [ "administrative_area_level_2", "political" ]            },            {               "long_name" : "Jharkhand",               "short_name" : "JH",               "types" : [ "administrative_area_level_1", "political" ]            },            {               "long_name" : "India",               "short_name" : "IN",               "types" : [ "country", "political" ]            }         ],         "formatted_address" : "Lakdom, Jharkhand, India",         "geometry" : {            "bounds" : {               "northeast" : {                  "lat" : 24.3939199,                  "lng" : 87.6913199               },               "southwest" : {                  "lat" : 24.3604301,                  "lng" : 87.65619               }            },            "location" : {               "lat" : 24.3817287,               "lng" : 87.6729074            },            "location_type" : "APPROXIMATE",            "viewport" : {               "northeast" : {                  "lat" : 24.3939199,                  "lng" : 87.6913199               },               "southwest" : {                  "lat" : 24.3604301,                  "lng" : 87.65619               }            }         },         "place_id" : "ChIJR01rE0YO-jkRqElVWIwcyPY",         "types" : [ "locality", "political" ]      },      {         "address_components" : [            {               "long_name" : "816106",               "short_name" : "816106",               "types" : [ "postal_code" ]            },            {               "long_name" : "India",               "short_name" : "IN",               "types" : [ "country", "political" ]            }         ],         "formatted_address" : "816106, India",         "geometry" : {            "bounds" : {               "northeast" : {                  "lat" : 24.4934091,                  "lng" : 87.81720639999999               },               "southwest" : {                  "lat" : 24.3608891,                  "lng" : 87.6577935               }            },            "location" : {               "lat" : 24.4364302,               "lng" : 87.7566513            },            "location_type" : "APPROXIMATE",            "viewport" : {               "northeast" : {                  "lat" : 24.4934091,                  "lng" : 87.81720639999999               },               "southwest" : {                  "lat" : 24.3608891,                  "lng" : 87.6577935               }            }         },         "place_id" : "ChIJqQ5AKM0T-jkR987H5Gdxnos",         "types" : [ "postal_code" ]      },      {         "address_components" : [            {               "long_name" : "Pakur",               "short_name" : "Pakur",               "types" : [ "administrative_area_level_2", "political" ]            },            {               "long_name" : "Jharkhand",               "short_name" : "JH",               "types" : [ "administrative_area_level_1", "political" ]            },            {               "long_name" : "India",               "short_name" : "IN",               "types" : [ "country", "political" ]            }         ],         "formatted_address" : "Pakur, Jharkhand, India",         "geometry" : {            "bounds" : {               "northeast" : {                  "lat" : 24.8287799,                  "lng" : 87.91916999999999               },               "southwest" : {                  "lat" : 24.23668,                  "lng" : 87.38923000000001               }            },            "location" : {               "lat" : 24.55368,               "lng" : 87.658113            },            "location_type" : "APPROXIMATE",            "viewport" : {               "northeast" : {                  "lat" : 24.8287799,                  "lng" : 87.91916999999999               },               "southwest" : {                  "lat" : 24.23668,                  "lng" : 87.38923000000001               }            }         },         "place_id" : "ChIJuc7u1eFp-jkR5m6JkyQO1LE",         "types" : [ "administrative_area_level_2", "political" ]      },      {         "address_components" : [            {               "long_name" : "Jharkhand",               "short_name" : "JH",               "types" : [ "administrative_area_level_1", "political" ]            },            {               "long_name" : "India",               "short_name" : "IN",               "types" : [ "country", "political" ]            }         ],         "formatted_address" : "Jharkhand, India",         "geometry" : {            "bounds" : {               "northeast" : {                  "lat" : 25.328823,                  "lng" : 87.947529               },               "southwest" : {                  "lat" : 21.9729309,                  "lng" : 83.32382799999999               }            },            "location" : {               "lat" : 23.6101808,               "lng" : 85.2799354            },            "location_type" : "APPROXIMATE",            "viewport" : {               "northeast" : {                  "lat" : 25.328823,                  "lng" : 87.947529               },               "southwest" : {                  "lat" : 21.9729309,                  "lng" : 83.32382799999999               }            }         },         "place_id" : "ChIJVwhI34YjizkRBJDi7gm4xWI",         "types" : [ "administrative_area_level_1", "political" ]      },      {         "address_components" : [            {               "long_name" : "India",               "short_name" : "IN",               "types" : [ "country", "political" ]            }         ],         "formatted_address" : "India",         "geometry" : {            "bounds" : {               "northeast" : {                  "lat" : 35.5087008,                  "lng" : 97.395561               },               "southwest" : {                  "lat" : 6.7535159,                  "lng" : 68.1623859               }            },            "location" : {               "lat" : 20.593684,               "lng" : 78.96288            },            "location_type" : "APPROXIMATE",            "viewport" : {               "northeast" : {                  "lat" : 35.5087008,                  "lng" : 97.395561               },               "southwest" : {                  "lat" : 6.7535159,                  "lng" : 68.16288519999999               }            }         },         "place_id" : "ChIJkbeSa_BfYzARphNChaFPjNc",         "types" : [ "country", "political" ]      }   ],   "status" : "OK"} 
11 DATE 20110115 T_LAT 24.001 T_LNG  88.597 CRACKER {   "results" : [      {         "address_components" : [            {               "long_name" : "Dhoradaha Road",               "short_name" : "Dhoradaha Road",               "types" : [ "route" ]            },            {               "long_name" : "Dhoradaha",               "short_name" : "Dhoradaha",               "types" : [ "locality", "political" ]            },            {               "long_name" : "Nadia",               "short_name" : "Nadia",               "types" : [ "administrative_area_level_2", "political" ]            },            {               "long_name" : "West Bengal",               "short_name" : "WB",               "types" : [ "administrative_area_level_1", "political" ]            },            {               "long_name" : "India",               "short_name" : "IN",               "types" : [ "country", "political" ]            },            {               "long_name" : "741152",               "short_name" : "741152",               "types" : [ "postal_code" ]            }         ],         "formatted_address" : "Dhoradaha Road, Dhoradaha, West Bengal 741152, India",         "geometry" : {            "bounds" : {               "northeast" : {                  "lat" : 24.0034499,                  "lng" : 88.59255829999999               },               "southwest" : {                  "lat" : 23.9944102,                  "lng" : 88.58446699999999               }            },            "location" : {               "lat" : 23.9981059,               "lng" : 88.58773889999999            },            "location_type" : "GEOMETRIC_CENTER",            "viewport" : {               "northeast" : {                  "lat" : 24.0034499,                  "lng" : 88.59255829999999               },               "southwest" : {                  "lat" : 23.9944102,                  "lng" : 88.58446699999999               }            }         },         "place_id" : "ChIJdcHmGalb-TkRfh387v9tRm4",         "types" : [ "route" ]      },      {         "address_components" : [            {               "long_name" : "Char Momenpur",               "short_name" : "Char Momenpur",               "types" : [ "locality", "political" ]            },            {               "long_name" : "Murshidabad",               "short_name" : "Murshidabad",               "types" : [ "administrative_area_level_2", "political" ]            },            {               "long_name" : "West Bengal",               "short_name" : "WB",               "types" : [ "administrative_area_level_1", "political" ]            },            {               "long_name" : "India",               "short_name" : "IN",               "types" : [ "country", "political" ]            }         ],         "formatted_address" : "Char Momenpur, West Bengal, India",         "geometry" : {            "bounds" : {               "northeast" : {                  "lat" : 24.0188,                  "lng" : 88.60751               },               "southwest" : {                  "lat" : 23.99008,                  "lng" : 88.59044               }            },            "location" : {               "lat" : 24.0022918,               "lng" : 88.5987961            },            "location_type" : "APPROXIMATE",            "viewport" : {               "northeast" : {                  "lat" : 24.0188,                  "lng" : 88.60751               },               "southwest" : {                  "lat" : 23.99008,                  "lng" : 88.59044               }            }         },         "place_id" : "ChIJPwJzN1Ja-TkRjd39HObsy3A",         "types" : [ "locality", "political" ]      },      {         "address_components" : [            {               "long_name" : "742406",               "short_name" : "742406",               "types" : [ "postal_code" ]            },            {               "long_name" : "West Bengal",               "short_name" : "WB",               "types" : [ "administrative_area_level_1", "political" ]            },            {               "long_name" : "India",               "short_name" : "IN",               "types" : [ "country", "political" ]            }         ],         "formatted_address" : "West Bengal 742406, India",         "geometry" : {            "bounds" : {               "northeast" : {                  "lat" : 24.0731001,                  "lng" : 88.64960429999999               },               "southwest" : {                  "lat" : 23.9823078,                  "lng" : 88.4861001               }            },            "location" : {               "lat" : 24.0540149,               "lng" : 88.56619529999999            },            "location_type" : "APPROXIMATE",            "viewport" : {               "northeast" : {                  "lat" : 24.0731001,                  "lng" : 88.64960429999999               },               "southwest" : {                  "lat" : 23.9823078,                  "lng" : 88.4861001               }            }         },         "place_id" : "ChIJP5Z3se9b-TkRPnGq56Tm7a8",         "types" : [ "postal_code" ]      },      {         "address_components" : [            {               "long_name" : "Murshidabad",               "short_name" : "Murshidabad",               "types" : [ "administrative_area_level_2", "political" ]            },            {               "long_name" : "West Bengal",               "short_name" : "WB",               "types" : [ "administrative_area_level_1", "political" ]            },            {               "long_name" : "India",               "short_name" : "IN",               "types" : [ "country", "political" ]            }         ],         "formatted_address" : "Murshidabad, West Bengal, India",         "geometry" : {            "bounds" : {               "northeast" : {                  "lat" : 24.8568101,                  "lng" : 88.74173689999999               },               "southwest" : {                  "lat" : 23.7201299,                  "lng" : 87.81908               }            },            "location" : {               "lat" : 24.2290007,               "lng" : 88.24611829999999            },            "location_type" : "APPROXIMATE",            "viewport" : {               "northeast" : {                  "lat" : 24.8568101,                  "lng" : 88.74173689999999               },               "southwest" : {                  "lat" : 23.7201299,                  "lng" : 87.81908               }            }         },         "place_id" : "ChIJQ4BOodN9-TkR7efebqYJFXA",         "types" : [ "administrative_area_level_2", "political" ]      },      {         "address_components" : [            {               "long_name" : "West Bengal",               "short_name" : "WB",               "types" : [ "administrative_area_level_1", "political" ]            },            {               "long_name" : "India",               "short_name" : "IN",               "types" : [ "country", "political" ]            }         ],         "formatted_address" : "West Bengal, India",         "geometry" : {            "bounds" : {               "northeast" : {                  "lat" : 27.220707,                  "lng" : 89.880039               },               "southwest" : {                  "lat" : 21.5468653,                  "lng" : 85.82095799999999               }            },            "location" : {               "lat" : 22.9867569,               "lng" : 87.85497549999999            },            "location_type" : "APPROXIMATE",            "viewport" : {               "northeast" : {                  "lat" : 27.220707,                  "lng" : 89.880039               },               "southwest" : {                  "lat" : 21.5468653,                  "lng" : 85.82095799999999               }            }         },         "place_id" : "ChIJh-iXE_8W-jkRCqLnwz06VHE",         "types" : [ "administrative_area_level_1", "political" ]      },      {         "address_components" : [            {               "long_name" : "India",               "short_name" : "IN",               "types" : [ "country", "political" ]            }         ],         "formatted_address" : "India",         "geometry" : {            "bounds" : {               "northeast" : {                  "lat" : 35.5087008,                  "lng" : 97.395561               },               "southwest" : {                  "lat" : 6.7535159,                  "lng" : 68.1623859               }            },            "location" : {               "lat" : 20.593684,               "lng" : 78.96288            },            "location_type" : "APPROXIMATE",            "viewport" : {               "northeast" : {                  "lat" : 35.5087008,                  "lng" : 97.395561               },               "southwest" : {                  "lat" : 6.7535159,                  "lng" : 68.16288519999999               }            }         },         "place_id" : "ChIJkbeSa_BfYzARphNChaFPjNc",         "types" : [ "country", "political" ]      }   ],   "status" : "OK"} 
12 DATE 20110115 T_LAT 24.082 T_LNG  88.505 CRACKER {   "results" : [      {         "address_components" : [            {               "long_name" : "Unnamed Road",               "short_name" : "Unnamed Road",               "types" : [ "route" ]            },            {               "long_name" : "Sibnagar Laskarpur",               "short_name" : "Sibnagar Laskarpur",               "types" : [ "locality", "political" ]            },            {               "long_name" : "Murshidabad",               "short_name" : "Murshidabad",               "types" : [ "administrative_area_level_2", "political" ]            },            {               "long_name" : "West Bengal",               "short_name" : "WB",               "types" : [ "administrative_area_level_1", "political" ]            },            {               "long_name" : "India",               "short_name" : "IN",               "types" : [ "country", "political" ]            },            {               "long_name" : "742303",               "short_name" : "742303",               "types" : [ "postal_code" ]            }         ],         "formatted_address" : "Unnamed Road, Sibnagar Laskarpur, West Bengal 742303, India",         "geometry" : {            "bounds" : {               "northeast" : {                  "lat" : 24.089543,                  "lng" : 88.50749019999999               },               "southwest" : {                  "lat" : 24.0801736,                  "lng" : 88.50132099999999               }            },            "location" : {               "lat" : 24.0845954,               "lng" : 88.50384939999999            },            "location_type" : "GEOMETRIC_CENTER",            "viewport" : {               "northeast" : {                  "lat" : 24.089543,                  "lng" : 88.50749019999999               },               "southwest" : {                  "lat" : 24.0801736,                  "lng" : 88.50132099999999               }            }         },         "place_id" : "ChIJh-I_DUxe-TkRgpwpMY0k0bM",         "types" : [ "route" ]      },      {         "address_components" : [            {               "long_name" : "Srirampur",               "short_name" : "Srirampur",               "types" : [ "locality", "political" ]            },            {               "long_name" : "Murshidabad",               "short_name" : "Murshidabad",               "types" : [ "administrative_area_level_2", "political" ]            },            {               "long_name" : "West Bengal",               "short_name" : "WB",               "types" : [ "administrative_area_level_1", "political" ]            },